_callback({"type":"FeatureCollection","features":[{"type":"Feature","geometry":{"type":"Point","coordinates":[81.33,43.95]},"properties":{"prov_name":"xin_jiang","value":"0.1"}},{"type":"Feature","geometry":{"type":"Point","coordinates":[102.08,34]},"properties":{"prov_name":"gan_su","value":"0.2"}},{"type":"Feature","geometry":{"type":"Point","coordinates":[109.18,27.72]},"properties":{"prov_name":"gui_zhou","value":"0.1"}},{"type":"Feature","geometry":{"type":"Point","coordinates":[117.32,49.58]},"properties":{"prov_name":"nei_meng_gu","value":"0.6"}},{"type":"Feature","geometry":{"type":"Point","coordinates":[104.73,31.45]},"properties":{"prov_name":"si_chuan","value":"0.1"}},{"type":"Feature","geometry":{"type":"Point","coordinates":[108.03,32.07]},"properties":{"prov_name":"si_chuan","value":"0.2"}},{"type":"Feature","geometry":{"type":"Point","coordinates":[107.88,27.23]},"properties":{"prov_name":"gui_zhou","value":"0.1"}},{"type":"Feature","geometry":{"type":"Point","coordinates":[109.4,25.21]},"properties":{"prov_name":"guang_xi","value":"0.1"}},{"type":"Feature","geometry":{"type":"Point","coordinates":[116.82,48.67]},"properties":{"prov_name":"nei_meng_gu","value":"0.2"}},{"type":"Feature","geometry":{"type":"Point","coordinates":[106.83,28.13]},"properties":{"prov_name":"gui_zhou","value":"0.1"}},{"type":"Feature","geometry":{"type":"Point","coordinates":[108.1,23.93]},"properties":{"prov_name":"guang_xi","value":"0.6"}}]})