_callback({"type":"FeatureCollection","features":[{"type":"Feature","geometry":{"type":"Point","coordinates":[81.33,43.95]},"properties":{"prov_name":"xin_jiang","value":"0.1"}},{"type":"Feature","geometry":{"type":"Point","coordinates":[105.02,35.38]},"properties":{"prov_name":"gan_su","value":"0.2"}},{"type":"Feature","geometry":{"type":"Point","coordinates":[106.42,23.13]},"properties":{"prov_name":"guang_xi","value":"0.1"}},{"type":"Feature","geometry":{"type":"Point","coordinates":[117.32,49.58]},"properties":{"prov_name":"nei_meng_gu","value":"0.2"}},{"type":"Feature","geometry":{"type":"Point","coordinates":[81.13,43.15]},"properties":{"prov_name":"xin_jiang","value":"0.2"}},{"type":"Feature","geometry":{"type":"Point","coordinates":[104.73,31.45]},"properties":{"prov_name":"si_chuan","value":"0.8"}},{"type":"Feature","geometry":{"type":"Point","coordinates":[106.77,31.87]},"properties":{"prov_name":"si_chuan","value":"0.3"}},{"type":"Feature","geometry":{"type":"Point","coordinates":[106.72,27.1]},"properties":{"prov_name":"gui_zhou","value":"0.1"}},{"type":"Feature","geometry":{"type":"Point","coordinates":[109.4,25.21]},"properties":{"prov_name":"guang_xi","value":"0.3"}},{"type":"Feature","geometry":{"type":"Point","coordinates":[116.82,48.67]},"properties":{"prov_name":"nei_meng_gu","value":"0.3"}},{"type":"Feature","geometry":{"type":"Point","coordinates":[110.37,31.03]},"properties":{"prov_name":"hu_bei","value":"0.2"}}]})